City_ID,City,Lat,Lng,Max Temp,Humidity,Cloudiness,Wind Speed,Country,Date,City Desc
0,Hermanus,-34.4187,19.2345,54.81,83,0,13.51,ZA,2022-09-10 19:59:11,clear sky
1,Matara,5.9485,80.5353,76.87,89,84,10.49,LK,2022-09-10 20:01:19,broken clouds
2,Leningradskiy,69.3833,178.4167,37.67,88,69,11.63,RU,2022-09-10 20:01:19,broken clouds
3,Kirakira,-10.4544,161.9205,78.49,85,7,6.98,SB,2022-09-10 20:01:20,clear sky
4,Bethel,41.3712,-73.414,86.81,46,36,1.01,US,2022-09-10 20:01:20,scattered clouds
5,New Norfolk,-42.7826,147.0587,47.91,80,98,1.99,AU,2022-09-10 20:01:21,overcast clouds
6,Barrow,71.2906,-156.7887,35.62,100,100,17.27,US,2022-09-10 20:01:21,mist
7,Mataura,-46.1927,168.8643,37.26,94,9,2.57,NZ,2022-09-10 20:01:21,clear sky
8,Sinnamary,5.3833,-52.95,83.14,69,100,9.66,GF,2022-09-10 20:01:21,overcast clouds
9,Bhum,18.4667,75.6667,74.01,88,100,5.44,IN,2022-09-10 20:01:22,overcast clouds
10,Cape Town,-33.9258,18.4232,57.11,91,75,9.22,ZA,2022-09-10 19:57:04,broken clouds
11,Dir,35.2058,71.8756,67.03,87,39,2.82,PK,2022-09-10 20:01:22,scattered clouds
12,Aksarka,66.5606,67.7975,40.44,85,100,2.19,RU,2022-09-10 20:00:40,overcast clouds
13,Yar-Sale,66.8333,70.8333,40.66,78,100,4.61,RU,2022-09-10 20:01:23,overcast clouds
14,Olinda,-8.0089,-34.8553,76.73,73,100,6.91,BR,2022-09-10 19:59:43,overcast clouds
15,Zhezkazgan,47.8043,67.7144,56.68,43,2,17.2,KZ,2022-09-10 20:01:23,clear sky
16,Odesskoye,54.2111,72.9651,52.09,46,100,9.84,RU,2022-09-10 20:01:23,overcast clouds
17,Airai,-8.9266,125.4092,56.41,75,77,1.81,TL,2022-09-10 20:01:24,broken clouds
18,Ushuaia,-54.8,-68.3,41.63,75,16,4.21,AR,2022-09-10 20:01:24,few clouds
19,Jevargi,17.0167,76.7667,74.64,92,100,14.05,IN,2022-09-10 20:01:24,overcast clouds
20,Ribeira Grande,38.5167,-28.7,73.8,73,75,25.32,PT,2022-09-10 20:01:25,broken clouds
21,Khani,41.9563,42.9566,54.97,72,66,5.28,GE,2022-09-10 20:01:25,broken clouds
22,Wanning,18.8003,110.3967,77.61,83,14,3.13,CN,2022-09-10 20:01:25,few clouds
23,Codrington,-38.2667,141.9667,48.51,87,100,11.45,AU,2022-09-10 20:01:26,overcast clouds
24,San Patricio,28.017,-97.5169,92.16,39,8,7.05,US,2022-09-10 20:01:26,clear sky
25,Saint-Augustin,51.226,-58.6502,63.79,63,0,13.65,CA,2022-09-10 20:01:26,clear sky
26,Bambous Virieux,-20.3428,57.7575,68.22,70,5,12.68,MU,2022-09-10 20:01:27,clear sky
27,Ribeira Brava,32.65,-17.0667,78.71,85,100,5.99,PT,2022-09-10 20:01:27,overcast clouds
28,Mitu,1.1983,-70.1733,77.67,94,100,2.98,CO,2022-09-10 20:01:27,overcast clouds
29,Port Elizabeth,-33.918,25.5701,61.07,80,100,8.1,ZA,2022-09-10 20:01:27,overcast clouds
30,Hervey Bay,-25.2986,152.8535,61.34,60,63,11.01,AU,2022-09-10 20:00:59,broken clouds
31,Iqaluit,63.7506,-68.5145,47.7,81,96,11.01,CA,2022-09-10 20:01:28,overcast clouds
32,Norman Wells,65.282,-126.8329,55.18,52,100,19.93,CA,2022-09-10 20:01:28,overcast clouds
33,Kapuskasing,49.4169,-82.4331,57.29,94,100,3.44,CA,2022-09-10 20:01:28,light rain
34,Faanui,-16.4833,-151.75,79.11,72,4,19.53,PF,2022-09-10 20:01:29,clear sky
35,Zhigansk,66.7697,123.3711,35.89,97,100,14.27,RU,2022-09-10 20:01:29,overcast clouds
36,Mattru,7.6244,-11.8332,73.78,95,100,4.16,SL,2022-09-10 20:01:29,moderate rain
37,Renigunta,13.65,79.5167,79.66,77,100,5.17,IN,2022-09-10 20:01:30,overcast clouds
38,Thompson,55.7435,-97.8558,56.82,44,95,7.45,CA,2022-09-10 20:01:30,overcast clouds
39,Kapaa,22.0752,-159.319,82.38,76,18,4.0,US,2022-09-10 20:01:30,light rain
40,Sorland,67.667,12.6934,48.06,83,100,6.8,NO,2022-09-10 20:01:31,overcast clouds
41,Newry,54.1784,-6.3374,59.11,93,4,4.47,GB,2022-09-10 20:01:31,clear sky
42,Nanortalik,60.1432,-45.2371,45.73,73,3,9.48,GL,2022-09-10 20:01:31,clear sky
43,Hobart,-42.8794,147.3294,48.25,75,40,6.91,AU,2022-09-10 20:00:06,scattered clouds
44,Rikitea,-23.1203,-134.9692,73.04,71,3,14.56,PF,2022-09-10 20:01:32,clear sky
45,Busselton,-33.65,115.3333,49.95,90,9,1.95,AU,2022-09-10 20:01:32,clear sky
46,Georgetown,5.4112,100.3354,82.33,83,20,0.0,MY,2022-09-10 20:00:16,few clouds
47,Bredasdorp,-34.5322,20.0403,54.43,80,0,12.26,ZA,2022-09-10 20:01:32,clear sky
48,Saint-Philippe,-21.3585,55.7679,65.79,73,51,11.25,RE,2022-09-10 20:01:33,broken clouds
49,Portland,45.5234,-122.6762,91.36,19,0,10.65,US,2022-09-10 20:00:49,clear sky
50,Nikolskoye,59.7035,30.7861,48.87,78,8,4.27,RU,2022-09-10 20:01:34,clear sky
51,North Bend,43.4065,-124.2243,89.24,54,8,6.58,US,2022-09-10 20:00:24,clear sky
52,Catuday,16.2923,119.8062,79.32,80,95,8.34,PH,2022-09-10 20:01:35,overcast clouds
53,Peniche,39.3558,-9.3811,70.11,90,0,6.02,PT,2022-09-10 20:01:35,clear sky
54,Margate,51.3813,1.3862,64.31,89,12,1.99,GB,2022-09-10 20:01:35,few clouds
55,Upernavik,72.7868,-56.1549,44.85,88,100,8.48,GL,2022-09-10 20:01:35,light rain
56,Lagoa,39.05,-27.9833,71.82,72,100,28.61,PT,2022-09-10 19:57:50,overcast clouds
57,Clyde River,70.4692,-68.5914,41.23,93,100,4.61,CA,2022-09-10 20:01:36,overcast clouds
58,Ponta Do Sol,32.6667,-17.1,78.71,83,100,5.61,PT,2022-09-10 20:01:36,overcast clouds
59,Ozernovskiy,51.5,156.5167,53.19,90,8,7.81,RU,2022-09-10 20:01:36,clear sky
60,Warrington,53.3925,-2.5802,62.89,79,68,3.44,GB,2022-09-10 20:01:37,broken clouds
61,Alofi,-19.0595,-169.9187,76.8,72,19,14.2,NU,2022-09-10 20:01:37,few clouds
62,Padang,-0.9492,100.3543,76.98,88,100,3.04,ID,2022-09-10 20:01:37,moderate rain
63,Butaritari,3.0707,172.7902,81.07,70,0,12.95,KI,2022-09-10 20:01:38,clear sky
64,Delijan,33.9905,50.6838,75.58,26,0,3.42,IR,2022-09-10 20:01:38,clear sky
65,Punta Arenas,-53.15,-70.9167,50.11,53,0,17.27,CL,2022-09-10 19:59:04,clear sky
66,Hibbing,47.4272,-92.9377,68.58,42,40,8.59,US,2022-09-10 20:01:38,scattered clouds
67,Tuatapere,-46.1333,167.6833,37.9,85,5,4.61,NZ,2022-09-10 20:01:39,clear sky
68,Kuah,6.3265,99.8432,81.93,76,98,9.1,MY,2022-09-10 20:01:39,overcast clouds
69,Avarua,-21.2078,-159.775,78.85,78,75,14.97,CK,2022-09-10 20:01:39,broken clouds
70,Hithadhoo,-0.6,73.0833,81.36,72,9,11.74,MV,2022-09-10 20:01:40,clear sky
71,Arraial Do Cabo,-22.9661,-42.0278,70.99,89,9,20.51,BR,2022-09-10 20:01:40,clear sky
72,Mitsamiouli,-11.3847,43.2844,75.69,76,10,6.11,KM,2022-09-10 20:01:40,clear sky
73,Bonga,7.2833,36.2333,61.02,98,100,0.98,ET,2022-09-10 20:01:41,overcast clouds
74,Atuona,-9.8,-139.0333,76.87,74,8,20.29,PF,2022-09-10 20:01:41,clear sky
75,Lebu,-37.6167,-73.65,51.98,74,1,15.61,CL,2022-09-10 20:01:41,clear sky
76,Karasburg,-28.0167,18.75,69.28,13,57,6.29,NA,2022-09-10 20:01:42,broken clouds
77,Tuktoyaktuk,69.4541,-133.0374,44.69,73,100,11.3,CA,2022-09-10 20:01:42,overcast clouds
78,Roma,43.2128,-75.4557,82.81,49,0,4.61,US,2022-09-10 20:01:42,clear sky
79,Champerico,14.3,-91.9167,83.95,75,89,11.65,GT,2022-09-10 20:01:43,overcast clouds
80,Qingdao,36.0986,120.3719,71.13,69,17,2.57,CN,2022-09-10 20:01:43,few clouds
81,Karratha,-20.7377,116.8463,70.5,41,0,7.16,AU,2022-09-10 20:01:43,clear sky
82,Amapa,1.0,-52.0,82.02,64,57,7.81,BR,2022-09-10 20:01:44,broken clouds
83,Prince Rupert,54.3161,-130.3201,60.6,68,50,6.58,CA,2022-09-10 20:00:24,scattered clouds
84,Albany,42.6001,-73.9662,83.88,60,100,1.01,US,2022-09-10 19:59:11,overcast clouds
85,Tasiilaq,65.6145,-37.6368,44.76,76,9,2.91,GL,2022-09-10 20:01:44,clear sky
86,Qaanaaq,77.484,-69.3632,36.84,87,100,7.11,GL,2022-09-10 20:01:44,overcast clouds
87,Prieska,-29.6641,22.7474,65.93,29,18,13.67,ZA,2022-09-10 20:01:45,few clouds
88,Tarakan,3.3,117.6333,79.79,79,100,3.33,ID,2022-09-10 20:01:45,overcast clouds
89,Bonthe,7.5264,-12.505,76.51,87,100,7.38,SL,2022-09-10 20:01:45,light rain
90,Langsa,4.4683,97.9683,73.71,98,100,2.75,ID,2022-09-10 20:01:46,overcast clouds
91,Simpang,-1.2667,104.0833,72.34,98,98,2.98,ID,2022-09-10 20:01:46,overcast clouds
92,Salalah,17.0151,54.0924,76.55,84,78,4.61,OM,2022-09-10 19:59:18,broken clouds
93,Povenets,62.8487,34.8262,49.69,77,100,6.67,RU,2022-09-10 20:01:47,light rain
94,Mar Del Plata,-38.0023,-57.5575,55.94,45,0,3.0,AR,2022-09-10 20:01:47,clear sky
95,Yellowknife,62.456,-114.3525,55.56,76,3,19.82,CA,2022-09-10 20:00:25,clear sky
96,Coihaique,-45.5752,-72.0662,57.15,51,40,9.22,CL,2022-09-10 19:59:57,scattered clouds
97,Paamiut,61.994,-49.6678,44.29,78,100,5.73,GL,2022-09-10 20:01:48,overcast clouds
98,San Quintin,30.4833,-115.95,79.3,69,84,16.42,MX,2022-09-10 20:01:49,broken clouds
99,Nogales,31.3086,-110.9422,86.72,42,5,2.84,MX,2022-09-10 20:01:49,clear sky
100,Bourail,-21.5667,165.4833,72.39,85,0,1.23,NC,2022-09-10 20:01:49,clear sky
101,Salinas,36.6777,-121.6555,74.01,78,99,5.84,US,2022-09-10 19:57:06,overcast clouds
102,Karoi,-16.8099,29.6925,64.18,37,0,4.21,ZW,2022-09-10 20:01:50,clear sky
103,Suntar,62.1444,117.6319,32.72,96,17,4.09,RU,2022-09-10 20:01:50,few clouds
104,Sambava,-14.2667,50.1667,68.02,89,38,10.27,MG,2022-09-10 20:01:50,scattered clouds
105,Poum,-20.2333,164.0167,75.4,82,0,7.14,NC,2022-09-10 20:01:51,clear sky
106,Tiksi,71.6872,128.8694,38.17,89,100,8.08,RU,2022-09-10 20:01:51,overcast clouds
107,Muroto,33.2833,134.15,80.44,80,35,15.57,JP,2022-09-10 20:01:51,scattered clouds
108,Castro,-24.7911,-50.0119,76.73,61,0,7.52,BR,2022-09-10 20:01:52,clear sky
109,Benguela,-12.5763,13.4055,71.51,79,3,2.26,AO,2022-09-10 20:01:52,clear sky
110,Sojat,25.9167,73.6667,85.32,61,6,6.11,IN,2022-09-10 20:01:10,clear sky
111,Fuerte Olimpo,-21.0415,-57.8738,85.37,31,11,6.26,PY,2022-09-10 20:01:52,few clouds
112,Chuy,-33.6971,-53.4616,54.91,55,0,11.83,UY,2022-09-10 20:01:53,clear sky
113,Bluff,-46.6,168.3333,41.32,87,7,6.02,NZ,2022-09-10 20:01:53,clear sky
114,Marawi,7.9986,124.2928,67.73,90,100,3.22,PH,2022-09-10 20:01:53,overcast clouds
115,Hofn,64.2539,-15.2082,51.55,95,100,13.76,IS,2022-09-10 20:01:54,light rain
116,Vaini,-21.2,-175.2,74.68,83,100,17.98,TO,2022-09-10 20:01:54,light rain
117,Stanger,-29.3282,31.2895,65.39,92,0,2.44,ZA,2022-09-10 20:01:54,clear sky
118,Panzhihua,26.5851,101.7128,64.72,94,100,0.56,CN,2022-09-10 20:01:55,overcast clouds
119,Gravatai,-29.9444,-50.9919,62.76,57,0,5.5,BR,2022-09-10 20:01:55,clear sky
120,Balabac,7.9868,117.0645,80.11,79,100,2.98,PH,2022-09-10 20:01:55,overcast clouds
121,Elliot,-31.3333,27.85,59.47,29,45,7.52,ZA,2022-09-10 20:01:56,scattered clouds
122,Ordzhonikidze,52.4411,61.7408,46.9,87,100,17.4,KZ,2022-09-10 20:01:56,light rain
123,Bjornevatn,69.6672,29.9847,47.82,81,100,5.75,NO,2022-09-10 20:01:57,overcast clouds
124,Ponnani,10.767,75.9252,76.32,92,100,8.81,IN,2022-09-10 20:01:57,overcast clouds
125,Saldanha,-33.0117,17.9442,56.5,88,35,5.39,ZA,2022-09-10 20:01:57,scattered clouds
126,Kruisfontein,-34.0033,24.7314,55.9,82,100,6.35,ZA,2022-09-10 20:01:57,overcast clouds
127,Vanimo,-2.6741,141.3028,76.73,88,100,2.77,PG,2022-09-10 20:01:58,overcast clouds
128,Saskylakh,71.9167,114.0833,33.98,98,100,13.06,RU,2022-09-10 20:01:58,light snow
129,Rabo De Peixe,37.8,-25.5833,71.28,85,40,19.57,PT,2022-09-10 20:01:59,moderate rain
130,Cidreira,-30.1811,-50.2056,58.37,52,0,13.56,BR,2022-09-10 20:01:59,clear sky
131,Manbij,36.5281,37.9549,81.93,30,0,10.38,SY,2022-09-10 20:01:59,clear sky
132,Coffeyville,37.0373,-95.6164,92.01,35,75,5.75,US,2022-09-10 20:02:00,broken clouds
133,Hovd,48.0056,91.6419,57.18,46,5,7.54,MN,2022-09-10 20:02:00,clear sky
134,Hilo,19.7297,-155.09,85.28,77,81,4.0,US,2022-09-10 20:02:00,broken clouds
135,Cherskiy,68.75,161.3,48.74,82,97,2.62,RU,2022-09-10 20:02:01,overcast clouds
136,Jamestown,42.097,-79.2353,80.02,40,100,5.99,US,2022-09-10 19:57:36,overcast clouds
137,Kysyl-Syr,63.8986,122.7617,31.89,92,14,7.52,RU,2022-09-10 20:02:01,few clouds
138,Sorong,-0.8833,131.25,76.68,87,100,4.76,ID,2022-09-10 20:02:01,overcast clouds
139,Tura,25.5198,90.2201,73.4,97,91,3.85,IN,2022-09-10 20:02:02,moderate rain
140,Sampues,9.1836,-75.3817,85.53,70,64,5.91,CO,2022-09-10 20:02:03,broken clouds
141,Hazorasp,41.3194,61.0742,58.84,30,2,10.31,UZ,2022-09-10 20:00:10,clear sky
142,Kantunilkin,21.0917,-87.45,77.02,92,100,5.14,MX,2022-09-10 20:02:03,overcast clouds
143,Tiznit,29.5833,-9.5,75.78,58,50,4.05,MA,2022-09-10 20:02:04,scattered clouds
144,Viransehir,37.2353,39.7631,84.83,18,0,1.39,TR,2022-09-10 20:02:04,clear sky
145,Severo-Kurilsk,50.6789,156.125,52.03,88,15,11.41,RU,2022-09-10 20:02:04,few clouds
146,Ostrovnoy,68.0531,39.5131,48.22,88,94,9.13,RU,2022-09-10 20:02:05,overcast clouds
147,Kununurra,-15.7667,128.7333,73.38,78,0,4.61,AU,2022-09-10 20:02:05,clear sky
148,Isangel,-19.55,169.2667,75.45,81,4,4.59,VU,2022-09-10 20:02:05,clear sky
149,Rafai,4.95,23.9167,69.35,96,84,0.76,CF,2022-09-10 20:02:06,light rain
150,Fuxin,42.0156,121.6589,63.97,86,100,3.87,CN,2022-09-10 20:02:06,overcast clouds
151,Meulaboh,4.1363,96.1285,76.28,86,91,2.71,ID,2022-09-10 20:02:06,overcast clouds
152,Leh,34.1667,77.5833,58.78,57,40,3.71,IN,2022-09-10 20:02:07,scattered clouds
153,Husavik,66.0449,-17.3389,48.88,97,100,8.01,IS,2022-09-10 20:02:07,overcast clouds
154,Nijar,36.9665,-2.206,74.84,65,0,3.44,ES,2022-09-10 20:02:07,clear sky
155,Kavieng,-2.5744,150.7967,80.56,79,40,13.15,PG,2022-09-10 20:02:08,moderate rain
156,Provideniya,64.3833,-173.3,44.91,74,3,0.85,RU,2022-09-10 20:02:08,clear sky
157,Mahibadhoo,3.7833,72.9667,80.71,80,28,12.19,MV,2022-09-10 20:02:08,scattered clouds
158,Khasan,42.4308,130.6434,61.66,88,98,2.73,RU,2022-09-10 20:02:08,overcast clouds
159,Shaoguan,24.8,113.5833,76.23,65,57,1.48,CN,2022-09-10 20:02:09,broken clouds
160,Sola,-13.8833,167.55,80.35,72,1,19.64,VU,2022-09-10 20:02:09,clear sky
161,Pacific Grove,36.6177,-121.9166,72.41,84,100,4.0,US,2022-09-10 19:58:27,overcast clouds
162,Karaton,-6.3424,106.1045,71.82,93,100,2.48,ID,2022-09-10 20:02:10,overcast clouds
163,Fort Nelson,58.8053,-122.7002,68.23,25,80,9.93,CA,2022-09-10 20:02:10,broken clouds
164,Ladan,50.5196,32.5818,53.33,66,100,15.05,UA,2022-09-10 20:02:10,light rain
165,Bar Harbor,44.3876,-68.2039,81.46,67,0,5.01,US,2022-09-10 19:57:52,clear sky
166,Kahului,20.8947,-156.47,85.96,78,10,10.0,US,2022-09-10 20:00:06,clear sky
167,Damaturu,11.747,11.9608,72.45,87,77,3.2,NG,2022-09-10 20:02:11,broken clouds
168,Labytnangi,66.6572,66.4183,36.0,88,100,3.71,RU,2022-09-10 20:02:11,overcast clouds
169,Chokurdakh,70.6333,147.9167,39.36,91,100,4.79,RU,2022-09-10 20:02:11,overcast clouds
170,Tyrma,50.0833,132.1667,51.8,95,10,2.46,RU,2022-09-10 20:02:12,clear sky
171,Tarime,-1.35,34.3667,63.23,88,70,4.56,TZ,2022-09-10 20:02:12,light rain
172,Port Augusta,-32.5,137.7667,47.21,79,42,5.08,AU,2022-09-10 19:58:06,scattered clouds
173,Port Alfred,-33.5906,26.891,64.18,85,100,5.99,ZA,2022-09-10 20:02:13,overcast clouds
174,La Ronge,55.1001,-105.2842,66.61,32,6,10.47,CA,2022-09-10 20:00:24,clear sky
175,Curup,-3.4667,102.5333,65.7,93,73,1.36,ID,2022-09-10 20:02:13,moderate rain
176,Tonantins,-2.8731,-67.8022,81.52,79,84,4.16,BR,2022-09-10 20:02:13,broken clouds
177,Vostok,46.4856,135.8833,49.87,86,0,3.58,RU,2022-09-10 20:02:14,clear sky
178,Zavyalovo,54.5053,82.4484,50.07,59,100,1.5,RU,2022-09-10 20:02:14,overcast clouds
179,Nova Olimpia,-14.7972,-57.2881,100.42,18,58,5.14,BR,2022-09-10 20:02:14,broken clouds
180,Nome,64.5011,-165.4064,45.16,85,100,11.34,US,2022-09-10 19:57:33,overcast clouds
181,Dzaoudzi,-12.7887,45.2699,73.29,88,0,2.3,YT,2022-09-10 20:02:15,clear sky
182,Crotone,39.0851,17.1178,78.87,59,0,7.96,IT,2022-09-10 20:02:15,clear sky
183,Pisco,-13.7,-76.2167,65.01,74,5,7.99,PE,2022-09-10 20:02:15,clear sky
184,Kamenka,51.3223,42.7678,44.69,64,6,6.11,RU,2022-09-10 20:02:16,clear sky
185,Berlevag,70.8578,29.0864,46.4,87,100,12.66,NO,2022-09-10 20:02:16,overcast clouds
186,Petropavlovsk-Kamchatskiy,53.0452,158.6483,46.99,76,20,8.95,RU,2022-09-10 20:02:16,few clouds
187,Geraldton,-28.7667,114.6,48.61,93,0,6.91,AU,2022-09-10 20:02:18,clear sky
188,Nalut,30.3333,10.85,88.29,18,0,10.89,LY,2022-09-10 20:02:18,clear sky
189,Masunga,-20.6246,27.4488,67.41,26,0,11.27,BW,2022-09-10 20:02:18,clear sky
190,Ornskoldsvik,63.2909,18.7153,52.75,82,100,3.44,SE,2022-09-10 20:02:19,overcast clouds
191,Saint George,37.1041,-113.5841,85.42,44,100,23.02,US,2022-09-10 19:58:59,haze
192,Kharp,66.8014,65.8081,35.69,89,98,4.79,RU,2022-09-10 20:02:19,overcast clouds
193,Okha,53.5739,142.9478,51.73,96,25,2.62,RU,2022-09-10 20:02:20,scattered clouds
194,Torbay,47.6666,-52.7314,57.58,93,100,34.0,CA,2022-09-10 20:02:20,moderate rain
195,Bubaque,11.2833,-15.8333,80.65,80,97,7.2,GW,2022-09-10 20:02:20,light rain
196,Mandera,3.9366,41.867,83.03,55,92,24.23,KE,2022-09-10 20:02:21,overcast clouds
197,Korla,41.7597,86.1469,78.58,20,0,8.21,CN,2022-09-10 20:02:21,clear sky
198,Kralendijk,12.15,-68.2667,84.6,79,100,19.6,BQ,2022-09-10 20:00:02,overcast clouds
199,Yarada,17.65,83.2667,79.12,100,100,2.3,IN,2022-09-10 19:58:11,mist
200,Senador Jose Porfirio,-2.5908,-51.9542,90.61,45,47,2.53,BR,2022-09-10 20:02:21,scattered clouds
201,Mahebourg,-20.4081,57.7,68.25,71,3,12.95,MU,2022-09-10 20:01:30,clear sky
202,Soyo,-6.1349,12.3689,73.63,86,37,9.8,AO,2022-09-10 20:02:22,scattered clouds
203,Goderich,43.7501,-81.7165,83.91,62,96,6.44,CA,2022-09-10 20:00:25,overcast clouds
204,Dunedin,-45.8742,170.5036,46.8,85,48,3.0,NZ,2022-09-10 20:02:21,scattered clouds
205,Sobolevo,54.4299,31.8996,49.69,48,100,11.79,RU,2022-09-10 20:02:22,overcast clouds
206,Romny,50.751,33.4747,57.09,42,100,13.98,UA,2022-09-10 20:02:23,light rain
207,Sai Buri,6.7013,101.6168,78.96,85,100,3.2,TH,2022-09-10 20:02:23,moderate rain
208,Krasnoarmeysk,51.0239,45.6969,45.3,66,13,5.17,RU,2022-09-10 20:02:23,few clouds
209,Itarema,-2.9248,-39.9167,80.67,67,0,16.06,BR,2022-09-10 20:02:24,clear sky
210,Krasnoselkup,65.7,82.4667,41.0,51,100,4.74,RU,2022-09-10 20:02:24,overcast clouds
211,Labuhan,-6.8844,112.2051,76.68,87,96,6.22,ID,2022-09-10 20:02:24,overcast clouds
212,Puerto Ayora,-0.7393,-90.3518,68.56,88,80,5.99,EC,2022-09-10 20:02:25,broken clouds
213,Adolfo Lopez Mateos,28.4667,-107.3,69.93,53,37,9.37,MX,2022-09-10 20:02:25,scattered clouds
214,Touros,-5.1989,-35.4608,77.63,73,0,17.78,BR,2022-09-10 20:02:25,clear sky
215,Alyangula,-13.8483,136.4192,74.46,79,91,1.68,AU,2022-09-10 20:02:25,overcast clouds
216,Asau,46.4333,26.4,61.72,89,100,5.19,RO,2022-09-10 20:02:26,overcast clouds
217,Vila Franca Do Campo,37.7167,-25.4333,72.19,87,100,15.35,PT,2022-09-10 20:02:26,overcast clouds
218,Bela,25.9333,81.9833,81.54,73,12,8.63,IN,2022-09-10 20:02:27,few clouds
219,Elko,41.0002,-115.5012,80.74,9,0,4.0,US,2022-09-10 20:02:27,clear sky
220,Grindavik,63.8424,-22.4338,52.27,93,0,16.11,IS,2022-09-10 20:02:27,clear sky
221,Moree,-29.4667,149.85,46.42,93,86,5.75,AU,2022-09-10 20:02:27,overcast clouds
222,Valkeala,60.9401,26.7979,44.31,87,0,4.61,FI,2022-09-10 20:02:28,clear sky
223,Carnarvon,-24.8667,113.6333,63.57,69,0,12.91,AU,2022-09-10 20:02:28,clear sky
224,Brewster,41.3973,-73.6171,87.28,45,31,4.79,US,2022-09-10 20:01:33,scattered clouds
225,Vila Velha,-20.3297,-40.2925,76.57,64,34,22.12,BR,2022-09-10 20:00:34,scattered clouds
226,Longyearbyen,78.2186,15.6401,33.64,69,75,11.5,SJ,2022-09-10 20:02:23,broken clouds
227,Saint-Pierre,-21.3393,55.4781,69.91,68,75,4.61,RE,2022-09-10 20:02:29,broken clouds
228,Casma,-41.0082,-73.1244,52.88,66,41,5.35,CL,2022-09-10 20:02:29,scattered clouds
229,Dingle,10.9995,122.6711,74.35,89,91,4.09,PH,2022-09-10 20:02:29,overcast clouds
230,Sanmenxia,34.7747,111.1814,63.5,79,6,4.03,CN,2022-09-10 20:02:30,clear sky
231,Xian,34.2583,108.9286,67.87,73,0,2.19,CN,2022-09-10 20:01:28,clear sky
232,Atar,20.5169,-13.0499,102.78,14,76,11.14,MR,2022-09-10 19:58:37,broken clouds
233,Buala,-8.145,159.5921,80.2,78,17,9.71,SB,2022-09-10 20:02:30,light rain
234,Baruun-Urt,46.6806,113.2792,63.27,25,65,8.72,MN,2022-09-10 20:02:32,broken clouds
235,Mamakan,57.8161,114.0028,41.5,88,100,1.7,RU,2022-09-10 20:02:32,overcast clouds
236,Zaysan,47.4667,84.8667,59.54,50,1,3.2,KZ,2022-09-10 20:02:32,clear sky
237,Palmer,42.1584,-72.3287,86.07,51,100,3.62,US,2022-09-10 20:02:32,overcast clouds
238,Mahanje,-9.9333,35.3333,65.12,63,61,2.48,TZ,2022-09-10 20:02:33,broken clouds
239,Kodiak,57.79,-152.4072,51.31,82,100,4.61,US,2022-09-10 20:02:33,overcast clouds
240,Talnakh,69.4865,88.3972,35.65,99,100,9.8,RU,2022-09-10 20:02:33,light rain
241,Fairfield,41.2668,-73.3162,86.95,43,0,9.22,US,2022-09-10 20:02:34,clear sky
242,Boa Vista,2.8197,-60.6733,91.38,52,40,5.75,BR,2022-09-10 20:00:43,scattered clouds
243,Teya,60.3778,92.6267,45.34,96,100,4.76,RU,2022-09-10 20:02:34,overcast clouds
244,Tahara,34.6667,137.2667,76.95,2,3,3.33,JP,2022-09-10 20:02:35,clear sky
245,Alberton,46.8168,-64.0654,67.08,67,0,7.72,CA,2022-09-10 20:00:24,clear sky
246,Fortuna,40.5982,-124.1573,67.98,88,65,7.49,US,2022-09-10 20:02:35,broken clouds
247,Payette,44.0782,-116.9338,82.27,17,0,0.0,US,2022-09-10 20:02:35,clear sky
248,Bereda,43.2686,-7.5406,66.15,80,0,1.57,ES,2022-09-10 20:02:36,clear sky
249,Mayo,38.8876,-76.5119,84.11,64,100,3.0,US,2022-09-10 19:59:37,overcast clouds
250,Itaituba,-4.2761,-55.9836,102.38,20,2,3.83,BR,2022-09-10 20:02:36,clear sky
251,Rio De Janeiro,-22.9028,-43.2075,80.6,63,40,29.93,BR,2022-09-10 19:58:40,haze
252,Ornes,66.8689,13.7078,47.23,89,42,4.36,NO,2022-09-10 20:02:36,scattered clouds
253,Raudeberg,61.9875,5.1352,56.07,77,0,8.28,NO,2022-09-10 20:02:37,clear sky
254,Necochea,-38.5473,-58.7368,52.72,51,0,5.26,AR,2022-09-10 20:02:37,clear sky
255,Manono,-7.3,27.4167,76.42,56,15,2.1,CD,2022-09-10 20:02:37,few clouds
256,Yeppoon,-23.1333,150.7333,56.98,59,83,5.61,AU,2022-09-10 20:02:38,broken clouds
257,Bengkulu,-3.8004,102.2655,74.14,85,59,2.93,ID,2022-09-10 20:02:38,moderate rain
258,Khatanga,71.9667,102.5,30.67,95,100,8.39,RU,2022-09-10 20:02:38,overcast clouds
259,Alexandria,31.2156,29.9553,77.54,63,0,7.25,EG,2022-09-10 19:57:55,clear sky
260,Arani,12.6667,79.2833,80.46,67,100,9.26,IN,2022-09-10 20:02:39,overcast clouds
261,Kaitangata,-46.2817,169.8464,39.7,92,10,3.62,NZ,2022-09-10 20:02:39,clear sky
262,Presidencia Roque Saenz Pena,-26.7852,-60.4388,71.96,14,0,8.5,AR,2022-09-10 20:02:39,clear sky
263,Butwal,27.7006,83.4484,77.59,74,33,5.1,NP,2022-09-10 19:57:50,scattered clouds
264,Conceicao Do Araguaia,-8.2578,-49.2647,101.37,13,0,6.8,BR,2022-09-10 20:02:40,clear sky
265,Vardo,70.3705,31.1107,48.18,81,100,12.66,NO,2022-09-10 20:02:40,overcast clouds
266,Tafresh,34.692,50.013,67.41,32,0,5.08,IR,2022-09-10 20:02:41,clear sky
267,Kloulklubed,7.0419,134.2556,75.7,68,17,1.9,PW,2022-09-10 20:02:41,few clouds
268,Tineo,43.3376,-6.4145,61.05,79,7,1.95,ES,2022-09-10 20:02:41,clear sky
269,Dandong,40.1292,124.3947,62.8,86,59,3.56,CN,2022-09-10 20:02:41,broken clouds
270,Washougal,45.5826,-122.3534,88.23,22,0,20.71,US,2022-09-10 20:02:42,smoke
271,Paso De Carrasco,-34.8603,-56.0522,54.95,48,0,7.25,UY,2022-09-10 20:02:42,clear sky
272,Cabo San Lucas,22.8909,-109.9124,89.62,72,20,7.0,MX,2022-09-10 20:01:56,few clouds
273,Tucumcari,35.1717,-103.725,66.04,68,40,14.97,US,2022-09-10 20:02:42,scattered clouds
274,Almeirim,-1.5233,-52.5817,94.17,36,47,2.73,BR,2022-09-10 20:02:43,scattered clouds
275,Maneadero,31.7167,-116.5667,81.97,63,94,11.79,MX,2022-09-10 20:02:43,overcast clouds
276,Miri,4.4148,114.0089,76.35,89,100,3.71,MY,2022-09-10 20:02:44,moderate rain
277,Taoudenni,22.6783,-3.9836,102.83,13,62,8.7,ML,2022-09-10 20:02:44,broken clouds
278,Broken Hill,-31.95,141.4333,47.07,75,82,6.6,AU,2022-09-10 20:02:44,broken clouds
279,Damietta,31.4165,31.8133,78.33,67,0,7.34,EG,2022-09-10 20:02:44,clear sky
280,Blackwater,-23.5833,148.8833,57.69,56,5,6.33,AU,2022-09-10 20:02:45,moderate rain
281,Pundaguitan,6.3711,126.1689,81.93,72,100,5.14,PH,2022-09-10 20:02:46,overcast clouds
282,Rocha,-34.4833,-54.3333,51.3,61,0,12.64,UY,2022-09-10 20:02:46,clear sky
283,Stettler,52.3168,-112.7186,72.75,16,3,10.36,CA,2022-09-10 20:02:47,clear sky
284,Komsomolskiy,40.4272,71.7189,83.12,26,71,9.22,UZ,2022-09-10 20:02:47,broken clouds
285,Sande,53.5049,8.0142,62.02,90,6,6.17,DE,2022-09-10 20:02:47,clear sky
286,Ahipara,-35.1667,173.1667,53.02,80,69,7.47,NZ,2022-09-10 20:02:48,broken clouds
287,La Rioja,42.25,-2.5,69.58,52,4,5.48,ES,2022-09-10 20:02:48,clear sky
288,Bangassou,4.7413,22.8184,69.26,98,89,1.77,CF,2022-09-10 20:00:19,overcast clouds
289,Olafsvik,64.8945,-23.7142,52.2,82,100,15.23,IS,2022-09-10 20:02:48,overcast clouds
290,Bonavista,48.6499,-53.1147,57.16,87,100,29.64,CA,2022-09-10 20:02:49,overcast clouds
291,Belmonte,-15.8631,-38.8828,73.63,59,0,7.54,BR,2022-09-10 20:02:49,clear sky
292,Green River,41.5286,-109.4662,66.18,40,0,5.01,US,2022-09-10 20:01:22,clear sky
293,Bandiagara,14.3501,-3.6104,86.11,50,79,9.37,ML,2022-09-10 20:02:49,broken clouds
294,Shieli,44.1667,66.75,60.49,35,41,15.66,KZ,2022-09-10 20:02:50,scattered clouds
295,Arica,-18.475,-70.3042,62.8,70,15,8.7,CL,2022-09-10 20:02:50,few clouds
296,Abha,18.2164,42.5053,71.85,18,0,8.05,SA,2022-09-10 20:02:50,clear sky
297,Pevek,69.7008,170.3133,41.04,82,59,2.15,RU,2022-09-10 20:02:51,broken clouds
298,Lorengau,-2.0226,147.2712,80.11,82,38,8.01,PG,2022-09-10 20:02:51,scattered clouds
299,Marsh Harbour,26.5412,-77.0636,86.0,69,16,9.13,BS,2022-09-10 20:00:03,few clouds
300,Namatanai,-3.6667,152.4333,78.6,80,91,10.0,PG,2022-09-10 20:02:51,overcast clouds
301,Narsaq,60.9167,-46.05,53.82,57,14,2.24,GL,2022-09-10 20:02:52,few clouds
302,Victoria,22.2855,114.1577,83.32,83,17,1.99,HK,2022-09-10 20:02:52,few clouds
303,Follonica,42.9263,10.7616,78.51,65,17,6.87,IT,2022-09-10 20:02:52,few clouds
304,Esperance,-33.8667,121.9,50.77,88,100,7.83,AU,2022-09-10 20:02:53,overcast clouds
305,Mount Gambier,-37.8333,140.7667,48.07,90,100,7.81,AU,2022-09-10 20:02:53,overcast clouds
306,Alice Town,25.7167,-79.3,84.96,73,80,6.93,BS,2022-09-10 20:02:54,moderate rain
307,Brasilia,-15.7797,-47.9297,87.62,16,0,8.05,BR,2022-09-10 19:58:25,clear sky
308,Biak,-0.9131,122.8766,75.11,79,100,4.43,ID,2022-09-10 20:02:54,overcast clouds
309,Umea,63.8284,20.2597,52.92,93,100,2.3,SE,2022-09-10 20:02:54,fog
310,Itatskiy,56.07,89.0369,42.75,72,41,1.41,RU,2022-09-10 19:59:51,scattered clouds
311,Orotukan,62.2667,151.7,43.32,88,100,2.1,RU,2022-09-10 20:02:55,overcast clouds
312,San Rafael Del Sur,11.8485,-86.4384,81.68,81,99,4.36,NI,2022-09-10 20:02:55,overcast clouds
313,Tigil,57.8,158.6667,47.57,92,100,12.86,RU,2022-09-10 20:02:55,overcast clouds
314,Merritt,50.1123,-120.7942,80.29,20,0,2.46,CA,2022-09-10 20:02:56,clear sky
315,Camacha,33.0833,-16.3333,72.82,83,40,9.22,PT,2022-09-10 20:02:56,scattered clouds
316,Kirkland Lake,48.1446,-80.0377,81.27,40,57,7.85,CA,2022-09-10 20:02:56,broken clouds
317,Sehithwa,-20.4667,22.7167,71.2,13,0,8.43,BW,2022-09-10 20:02:56,clear sky
318,Isabela,6.7085,121.9711,76.68,84,72,3.02,PH,2022-09-10 20:02:57,broken clouds
319,Omsukchan,62.5333,155.8,42.46,95,100,1.05,RU,2022-09-10 20:02:57,light rain
320,East London,-33.0153,27.9116,66.15,85,95,5.17,ZA,2022-09-10 19:59:53,overcast clouds
321,Norman,35.2226,-97.4395,90.9,44,0,1.99,US,2022-09-10 20:01:51,clear sky
322,Plerin,48.5425,-2.7798,62.44,93,100,3.44,FR,2022-09-10 20:02:58,overcast clouds
323,Porbandar,21.6422,69.6093,79.36,83,100,4.99,IN,2022-09-10 19:59:34,moderate rain
324,Swellendam,-34.0226,20.4417,52.52,83,0,3.18,ZA,2022-09-10 20:02:58,clear sky
325,Ponta Delgada,37.7333,-25.6667,72.5,94,40,19.57,PT,2022-09-10 20:02:59,moderate rain
326,Khromtau,50.2503,58.4347,44.87,82,100,22.39,KZ,2022-09-10 20:02:59,light rain
327,Anadyr,64.75,177.4833,44.01,81,87,8.01,RU,2022-09-10 20:02:59,overcast clouds
328,Igarka,67.4667,86.5833,37.54,90,100,8.59,RU,2022-09-10 20:03:01,overcast clouds
329,Beyneu,45.3167,55.2,58.48,41,2,8.34,KZ,2022-09-10 20:03:01,clear sky
330,Mangrol,21.1167,70.1167,79.45,84,100,8.19,IN,2022-09-10 20:03:01,heavy intensity rain
331,Kamaishi,39.2667,141.8833,63.37,89,80,7.54,JP,2022-09-10 20:03:02,broken clouds
332,Bisira,8.5196,-81.7115,62.44,96,100,2.89,PA,2022-09-10 20:03:02,overcast clouds
333,Fort Morgan,40.2503,-103.8,53.02,82,75,9.22,US,2022-09-10 20:00:30,broken clouds
334,Malinovka,53.8579,27.4374,51.3,84,100,15.99,BY,2022-09-10 20:03:02,overcast clouds
335,Katsuura,35.1333,140.3,73.78,86,100,20.85,JP,2022-09-10 20:03:03,overcast clouds
336,Lock Haven,41.137,-77.4469,78.26,59,92,5.99,US,2022-09-10 20:03:03,overcast clouds
337,Mariental,-24.6333,17.9667,76.24,8,0,2.68,NA,2022-09-10 20:03:04,clear sky
338,High Level,58.5169,-117.136,71.62,16,51,11.81,CA,2022-09-10 20:00:42,broken clouds
339,Hamilton,39.1834,-84.5333,82.42,68,0,8.05,US,2022-09-10 20:03:04,clear sky
340,Prata,-19.3072,-48.9242,94.86,15,13,7.4,BR,2022-09-10 20:03:04,few clouds
341,Egvekinot,66.3167,-179.1667,37.9,74,13,2.89,RU,2022-09-10 20:03:05,few clouds
342,Mangai,-4.05,19.5333,74.98,81,84,1.48,CD,2022-09-10 20:03:05,broken clouds
343,Azad Shahr,34.7909,48.5707,64.17,19,0,2.06,IR,2022-09-10 20:00:05,clear sky
344,Iracoubo,5.4802,-53.2011,82.72,71,99,9.86,GF,2022-09-10 20:03:05,overcast clouds
345,Atasu,48.6814,71.6433,60.57,51,100,3.6,KZ,2022-09-10 20:03:06,overcast clouds
346,Qasigiannguit,68.8193,-51.1922,50.25,71,100,5.5,GL,2022-09-10 20:03:06,overcast clouds
347,Klaksvik,62.2266,-6.589,50.92,89,71,16.51,FO,2022-09-10 20:03:06,broken clouds
348,Santa Isabel Do Rio Negro,-0.4139,-65.0192,91.2,48,46,4.21,BR,2022-09-10 20:03:07,scattered clouds
349,Dikson,73.5069,80.5464,36.36,79,99,5.32,RU,2022-09-10 20:03:07,overcast clouds
350,Bandarbeyla,9.4942,50.8122,78.87,78,82,21.59,SO,2022-09-10 20:03:07,broken clouds
351,Tolyatti,53.5303,49.3461,49.59,77,94,8.59,RU,2022-09-10 20:03:08,overcast clouds
352,Nuuk,64.1835,-51.7216,50.61,71,100,13.8,GL,2022-09-10 20:03:08,overcast clouds
353,Zhuanghe,39.7008,122.9911,63.61,63,6,6.11,CN,2022-09-10 20:03:09,clear sky
354,Rio Verde De Mato Grosso,-18.9181,-54.8442,95.76,23,45,9.51,BR,2022-09-10 20:03:09,scattered clouds
355,Bambanglipuro,-7.95,110.2833,75.6,92,100,7.87,ID,2022-09-10 20:03:10,overcast clouds
356,Buin,-33.7333,-70.75,72.43,38,0,6.93,CL,2022-09-10 20:03:10,clear sky
357,Mumford,5.2618,-0.759,75.11,89,13,11.88,GH,2022-09-10 20:03:10,few clouds
358,Thunder Bay,48.4001,-89.3168,68.45,39,98,3.47,CA,2022-09-10 20:00:25,overcast clouds
359,Buraydah,26.326,43.975,89.04,15,5,3.96,SA,2022-09-10 20:03:11,clear sky
360,Letlhakane,-21.4167,25.5833,72.55,17,0,8.32,BW,2022-09-10 20:03:11,clear sky
361,Manaus,-3.1019,-60.025,93.7,49,40,4.61,BR,2022-09-10 20:03:11,scattered clouds
362,Adrar,20.5022,-10.0711,102.33,13,63,8.95,MR,2022-09-10 20:03:12,broken clouds
363,Lompoc,34.6391,-120.4579,88.59,57,20,10.36,US,2022-09-10 20:03:12,few clouds
364,Sitka,57.0531,-135.33,57.09,72,75,3.44,US,2022-09-10 20:03:12,broken clouds
365,Praia,14.9215,-23.5087,80.85,77,6,3.49,CV,2022-09-10 20:03:13,clear sky
366,Ruwi,23.5996,58.5507,85.69,53,44,2.55,OM,2022-09-10 20:03:13,scattered clouds
367,Talikota,16.4833,76.3167,73.65,89,100,12.48,IN,2022-09-10 20:03:13,overcast clouds
368,Burnie,-41.0667,145.9167,47.95,79,100,13.2,AU,2022-09-10 20:03:14,light rain
369,Masindi,1.6744,31.715,64.51,85,10,1.66,UG,2022-09-10 20:03:14,clear sky
370,Laguna,38.421,-121.4238,94.08,36,0,12.66,US,2022-09-10 20:03:14,clear sky
371,Hasaki,35.7333,140.8333,72.0,85,100,23.8,JP,2022-09-10 20:03:15,overcast clouds
372,Salamiyah,35.0113,37.0532,78.33,36,0,8.19,SY,2022-09-10 20:03:15,clear sky
373,Salas,43.4118,-6.2602,66.51,81,0,2.68,ES,2022-09-10 20:03:15,clear sky
374,Milkovo,54.7167,158.6167,50.41,67,100,7.74,RU,2022-09-10 20:03:16,overcast clouds
375,Namtsy,62.7161,129.6658,35.19,93,35,7.56,RU,2022-09-10 20:03:17,scattered clouds
376,Cayenne,4.9333,-52.3333,86.04,66,0,12.66,GF,2022-09-10 20:00:53,clear sky
377,Dakar,14.6937,-17.4441,82.4,74,40,8.7,SN,2022-09-10 20:03:08,scattered clouds
378,Ust-Nera,64.5667,143.2,35.73,90,99,8.46,RU,2022-09-10 20:03:18,overcast clouds
379,Den Helder,52.9599,4.7593,64.38,88,2,5.99,NL,2022-09-10 20:03:18,clear sky
380,Sokol,59.4617,40.1206,47.17,59,92,1.59,RU,2022-09-10 20:03:18,overcast clouds
381,Lufilufi,-13.8745,-171.5986,80.22,78,12,17.29,WS,2022-09-10 20:03:18,few clouds
382,Ajaccio,42.0,8.9167,71.65,64,0,4.61,FR,2022-09-10 20:03:19,clear sky
383,Valparaiso,-33.0393,-71.6273,61.0,100,0,7.4,CL,2022-09-10 20:01:29,clear sky
384,Port Lincoln,-34.7333,135.8667,50.29,75,68,4.34,AU,2022-09-10 20:00:05,broken clouds
385,Sao Filipe,14.8961,-24.4956,79.66,83,53,2.39,CV,2022-09-10 20:03:20,broken clouds
386,Venosa,40.9613,15.8149,68.79,75,6,5.7,IT,2022-09-10 20:03:20,clear sky
387,Silver City,32.7701,-108.2803,83.68,36,17,7.0,US,2022-09-10 20:03:20,few clouds
388,Escanaba,45.7453,-87.0646,61.25,89,100,8.05,US,2022-09-10 20:03:21,overcast clouds
389,Lasa,46.6166,10.7002,54.36,90,60,4.45,IT,2022-09-10 20:03:21,broken clouds
390,Natchitoches,31.7668,-93.1335,85.98,54,40,0.0,US,2022-09-10 20:03:21,scattered clouds
391,Auki,-8.7676,160.7034,77.02,85,14,3.18,SB,2022-09-10 20:03:22,few clouds
392,Werda,-25.2667,23.2833,71.44,13,0,2.39,BW,2022-09-10 20:03:22,clear sky
393,Cilaos,-21.1336,55.4719,56.39,80,76,0.25,RE,2022-09-10 20:03:22,light rain
394,Marsa Matruh,31.3525,27.2453,77.83,64,0,8.52,EG,2022-09-10 20:03:23,clear sky
395,Hami,42.8,93.45,76.82,19,0,6.35,CN,2022-09-10 20:03:23,clear sky
396,Sturgeon Falls,46.3646,-79.9326,84.88,45,0,10.54,CA,2022-09-10 20:03:23,clear sky
397,Bayan,46.0833,127.4,62.2,93,100,3.33,CN,2022-09-10 20:03:24,overcast clouds
398,Pacifica,37.6138,-122.4869,83.64,81,75,16.11,US,2022-09-10 20:03:24,mist
399,Roebourne,-20.7833,117.1333,71.28,41,0,7.87,AU,2022-09-10 20:03:24,clear sky
400,Timmins,48.4669,-81.3331,60.62,82,100,10.36,CA,2022-09-10 20:00:43,overcast clouds
401,Taltal,-25.4,-70.4833,58.32,70,74,8.01,CL,2022-09-10 20:02:10,broken clouds
402,Vaitape,-16.5167,-151.75,79.12,72,5,19.42,PF,2022-09-10 20:03:25,clear sky
403,George,-33.963,22.4617,55.78,77,3,6.04,ZA,2022-09-10 20:03:25,clear sky
404,Ayagoz,47.9714,80.4392,55.51,26,49,3.53,KZ,2022-09-10 20:03:26,scattered clouds
405,Eyrarbakki,63.863,-21.1481,52.21,87,100,12.03,IS,2022-09-10 20:03:26,moderate rain
406,Waingapu,-9.6567,120.2641,76.01,78,7,5.46,ID,2022-09-10 20:03:26,clear sky
407,Port-Gentil,-0.7193,8.7815,76.96,83,40,12.66,GA,2022-09-10 20:03:27,scattered clouds
408,Vytegra,61.0064,36.4481,47.57,76,100,4.61,RU,2022-09-10 20:03:27,overcast clouds
409,Synya,65.3718,58.0387,40.03,97,100,3.02,RU,2022-09-10 20:03:28,overcast clouds
410,Tyazhinskiy,56.116,88.524,42.69,73,48,1.81,RU,2022-09-10 20:03:28,scattered clouds
411,Kot Samaba,28.5522,70.4684,93.22,37,0,2.98,PK,2022-09-10 20:03:28,clear sky
412,Atikokan,48.7555,-91.6216,69.1,26,89,8.57,CA,2022-09-10 20:03:29,overcast clouds
413,Vrangel,42.7297,133.0839,59.79,72,100,2.75,RU,2022-09-10 20:03:29,overcast clouds
414,Mocuba,-16.8392,36.9856,71.17,74,0,5.46,MZ,2022-09-10 20:03:29,clear sky
415,Te Anau,-45.4167,167.7167,34.63,86,28,0.74,NZ,2022-09-10 20:03:30,scattered clouds
416,Manggar,-2.8833,108.2667,79.16,80,92,2.1,ID,2022-09-10 20:03:30,overcast clouds
417,Batagay-Alyta,67.8006,130.4114,34.68,59,77,6.38,RU,2022-09-10 20:03:30,broken clouds
418,Gorontalo,0.5412,123.0595,74.14,91,100,3.36,ID,2022-09-10 20:03:32,overcast clouds
419,Maragogi,-9.0122,-35.2225,74.3,84,39,11.27,BR,2022-09-10 20:03:32,scattered clouds
420,Colares,38.7992,-9.4469,74.75,69,20,9.22,PT,2022-09-10 20:03:32,few clouds
421,Chicama,-7.8447,-79.1469,61.34,59,14,10.71,PE,2022-09-10 20:03:33,few clouds
422,Roald,62.5833,6.1333,55.99,87,75,10.36,NO,2022-09-10 20:03:33,broken clouds
423,Boyolangu,-8.1181,111.8935,74.14,95,98,3.22,ID,2022-09-10 20:03:33,overcast clouds
424,Altay,47.8667,88.1167,58.01,58,6,4.65,CN,2022-09-10 20:03:33,clear sky
425,Sosnovo-Ozerskoye,52.5249,111.5418,42.78,81,100,3.87,RU,2022-09-10 20:03:34,overcast clouds
426,Ilhabela,-23.7781,-45.3581,69.06,92,96,7.34,BR,2022-09-10 20:03:34,overcast clouds
427,Qaqortoq,60.7167,-46.0333,49.3,65,12,1.57,GL,2022-09-10 20:03:34,few clouds
428,Albert Town,18.2943,-77.5424,80.17,76,41,6.62,JM,2022-09-10 20:03:35,scattered clouds
429,Baleshwar,21.4942,86.9317,78.22,94,100,5.86,IN,2022-09-10 20:03:35,light rain
430,Acapulco,16.8634,-99.8901,83.53,79,100,10.63,MX,2022-09-10 19:58:46,overcast clouds
431,Takestan,36.0696,49.6959,60.96,78,17,11.81,IR,2022-09-10 20:03:36,few clouds
432,Bardiyah,31.7561,25.0865,77.94,78,0,12.55,LY,2022-09-10 20:03:36,clear sky
433,Wuchi,29.3786,103.023,55.33,93,74,0.96,CN,2022-09-10 20:03:36,broken clouds
434,Flinders,-34.5833,150.8552,50.25,84,6,7.96,AU,2022-09-10 20:03:37,clear sky
435,Payyannur,12.1,75.2,77.18,88,100,11.3,IN,2022-09-10 20:03:37,overcast clouds
436,Barroquinha,-3.0189,-41.1361,81.95,65,10,11.32,BR,2022-09-10 20:03:37,clear sky
437,Bosaso,11.2842,49.1816,89.74,59,100,6.76,SO,2022-09-10 20:03:38,overcast clouds
438,Hutang,31.5333,119.4833,68.23,94,100,4.41,CN,2022-09-10 20:03:38,overcast clouds
439,Sakakah,29.9697,40.2064,93.69,13,1,3.69,SA,2022-09-10 20:01:16,clear sky
440,Biltine,14.5333,20.9167,79.59,58,100,1.34,TD,2022-09-10 20:00:23,overcast clouds
441,Mogadishu,2.0371,45.3438,76.55,86,13,16.2,SO,2022-09-10 20:01:36,few clouds
442,Lefka,35.1106,32.8506,78.93,59,0,5.66,CY,2022-09-10 20:03:39,clear sky
443,Barinitas,8.7622,-70.4111,77.58,78,100,2.55,VE,2022-09-10 20:03:39,overcast clouds
444,Terra Rica,-22.7094,-52.6169,81.9,48,5,10.71,BR,2022-09-10 20:03:39,clear sky
445,Kwinana,-32.25,115.7667,49.17,84,4,4.99,AU,2022-09-10 20:03:40,clear sky
446,Ayan,56.45,138.1667,51.17,79,100,7.54,RU,2022-09-10 20:03:40,overcast clouds
447,Bongor,10.2806,15.3722,71.26,96,98,3.85,TD,2022-09-10 20:03:40,overcast clouds
448,Priargunsk,50.3691,119.1012,55.54,80,100,15.55,RU,2022-09-10 20:03:40,overcast clouds
449,Muisne,0.6,-80.0333,75.15,80,99,10.13,EC,2022-09-10 20:03:41,overcast clouds
450,Onokhoy,51.932,108.0747,37.15,66,100,2.71,RU,2022-09-10 20:03:41,overcast clouds
451,La Grande,45.3246,-118.0877,80.02,24,0,10.22,US,2022-09-10 20:01:26,clear sky
452,Ust-Tsilma,65.441,52.1498,40.73,97,24,3.65,RU,2022-09-10 20:03:42,few clouds
453,Nago,26.5881,127.9761,80.46,84,100,11.34,JP,2022-09-10 19:59:27,overcast clouds
454,Northam,51.0333,-4.2167,58.6,91,99,0.94,GB,2022-09-10 20:03:42,overcast clouds
455,Kharsawan,22.8,85.8333,75.69,97,100,4.83,IN,2022-09-10 20:03:42,light rain
456,Huarmey,-10.0681,-78.1522,67.46,69,1,12.17,PE,2022-09-10 20:03:42,clear sky
457,Palu,-0.8917,119.8707,74.19,97,79,2.57,ID,2022-09-10 20:03:43,broken clouds
458,Hambantota,6.1241,81.1185,78.1,83,99,16.42,LK,2022-09-10 20:03:43,overcast clouds
459,Kawhia,-38.0651,174.8183,53.51,88,84,3.13,NZ,2022-09-10 20:03:43,broken clouds
460,Fare,-16.7,-151.0167,78.64,72,0,20.0,PF,2022-09-10 20:03:44,clear sky
461,Kenai,60.5544,-151.2583,57.29,68,40,13.8,US,2022-09-10 20:03:44,scattered clouds
462,Mabaruma,8.2,-59.7833,79.99,91,41,4.94,GY,2022-09-10 20:03:44,scattered clouds
463,Souillac,-20.5167,57.5167,68.52,74,0,10.96,MU,2022-09-10 20:03:46,clear sky
464,Aklavik,68.2191,-135.0107,44.76,95,100,5.44,CA,2022-09-10 20:03:46,light rain
465,Ilulissat,69.2167,-51.1,50.02,62,100,16.11,GL,2022-09-10 20:03:46,overcast clouds
466,Aksu,41.1231,80.2644,78.24,17,4,6.85,CN,2022-09-10 20:03:47,clear sky
467,Vuktyl,63.8567,57.3094,40.53,96,97,2.39,RU,2022-09-10 20:03:47,overcast clouds
468,Avera,33.194,-82.5271,80.65,73,98,6.91,US,2022-09-10 20:03:47,overcast clouds
469,Muros,42.7762,-9.0603,68.68,90,15,3.8,ES,2022-09-10 20:03:48,few clouds
470,Jingdezhen,29.2947,117.2079,69.64,84,36,3.71,CN,2022-09-10 20:03:48,scattered clouds
471,Boshnyakovo,49.6333,142.1667,56.21,60,1,10.47,RU,2022-09-10 20:03:48,clear sky
472,Acari,-15.4311,-74.6158,70.72,56,36,9.15,PE,2022-09-10 20:03:49,scattered clouds
473,Raahe,64.6833,24.4833,46.49,83,30,12.91,FI,2022-09-10 20:03:49,scattered clouds
474,Basco,20.4487,121.9702,82.51,77,99,21.36,PH,2022-09-10 20:03:49,overcast clouds
475,Ongandjera,-17.8833,15.0667,74.44,12,0,8.95,NA,2022-09-10 20:03:50,clear sky
476,Maceio,-9.6658,-35.7353,72.84,94,100,2.3,BR,2022-09-10 20:03:50,overcast clouds
477,Cordoba,-31.4135,-64.1811,72.75,13,0,7.0,AR,2022-09-10 20:01:08,clear sky
478,Jieshi,22.8134,115.8257,78.24,82,55,5.19,CN,2022-09-10 20:03:50,broken clouds
479,Farafangana,-22.8167,47.8333,67.28,85,0,6.49,MG,2022-09-10 20:03:51,clear sky
480,Novo Aripuana,-5.1206,-60.3797,102.9,20,59,4.94,BR,2022-09-10 20:03:51,broken clouds
481,Guerrero Negro,27.9769,-114.0611,84.67,55,6,5.57,MX,2022-09-10 20:03:51,clear sky
482,Havre-Saint-Pierre,50.2334,-63.5986,62.17,78,0,11.56,CA,2022-09-10 20:03:52,clear sky
483,Naze,28.3667,129.4833,79.29,84,100,7.72,JP,2022-09-10 20:03:52,overcast clouds
484,Kisangani,0.5167,25.2,70.47,99,75,2.19,CD,2022-09-10 20:03:53,moderate rain
485,Veraval,20.9,70.3667,78.21,85,100,7.87,IN,2022-09-10 20:03:53,heavy intensity rain
486,Broome,42.2506,-75.833,83.01,46,0,9.22,US,2022-09-10 20:03:53,clear sky
487,Tessalit,20.1986,1.0114,99.07,12,97,9.93,ML,2022-09-10 20:03:54,overcast clouds
488,Pacsa,46.7198,17.014,60.19,94,0,8.05,HU,2022-09-10 20:03:54,clear sky
489,Raga,8.4596,25.678,71.38,97,94,0.92,SS,2022-09-10 20:03:54,overcast clouds
490,Sur,22.5667,59.5289,86.0,57,100,11.41,OM,2022-09-10 20:03:55,overcast clouds
491,Oranjemund,-28.55,16.4333,56.23,89,23,12.01,NA,2022-09-10 20:03:55,few clouds
492,Disna,55.568,28.1971,46.76,59,100,8.25,BY,2022-09-10 20:03:55,overcast clouds
493,Bridlington,54.0831,-0.1919,63.9,91,0,10.51,GB,2022-09-10 19:59:03,clear sky
494,Khandyga,62.6667,135.6,35.69,94,99,5.5,RU,2022-09-10 20:03:56,overcast clouds
495,Kankon,15.0167,74.0167,76.8,90,100,11.39,IN,2022-09-10 20:03:56,overcast clouds
496,Namibe,-15.1961,12.1522,66.04,91,64,6.53,AO,2022-09-10 20:03:56,broken clouds
497,Yulara,-25.2406,130.9889,53.11,86,35,15.84,AU,2022-09-10 20:03:56,scattered clouds
498,Kontagora,10.3999,5.4695,71.1,99,100,1.3,NG,2022-09-10 20:03:57,heavy intensity rain
499,Rudnyy,52.9594,63.1206,50.23,87,100,15.9,KZ,2022-09-10 20:03:57,moderate rain
500,Uspenka,48.3903,39.1619,51.51,40,91,7.92,UA,2022-09-10 20:03:57,overcast clouds
501,Charleston,32.7766,-79.9309,91.11,72,20,10.36,US,2022-09-10 20:01:57,few clouds
502,Amazar,53.858,120.875,38.93,96,96,4.76,RU,2022-09-10 20:03:58,overcast clouds
503,Mirnyy,62.5353,113.9611,31.19,94,31,4.25,RU,2022-09-10 20:03:58,scattered clouds
504,Sheopur,25.6667,76.7,81.46,73,15,5.32,IN,2022-09-10 20:03:58,few clouds
505,Kingaroy,-26.5333,151.8333,47.1,78,84,4.21,AU,2022-09-10 20:03:59,broken clouds
506,Flin Flon,54.7682,-101.865,65.59,32,97,9.82,CA,2022-09-10 20:03:59,overcast clouds
507,Rawson,-43.3002,-65.1023,63.37,31,0,6.35,AR,2022-09-10 20:01:00,clear sky
508,Linhares,-19.3911,-40.0722,78.21,50,5,12.06,BR,2022-09-10 20:00:33,clear sky
509,La Vega,19.2221,-70.5296,92.25,61,51,11.95,DO,2022-09-10 20:04:00,broken clouds
510,Jalu,29.0331,21.5482,83.86,22,0,5.59,LY,2022-09-10 20:04:00,clear sky
511,Senanga,-16.1167,23.2667,68.67,21,0,6.8,ZM,2022-09-10 20:04:00,clear sky
512,Goundam,16.4145,-3.6708,95.52,32,52,6.49,ML,2022-09-10 20:04:02,broken clouds
513,Banda Aceh,5.5577,95.3222,79.16,80,100,8.99,ID,2022-09-10 20:04:02,overcast clouds
514,Sao Joao Da Barra,-21.6403,-41.0511,78.89,72,5,23.78,BR,2022-09-10 20:04:02,clear sky
515,Hirado,33.3597,129.5531,76.39,88,67,15.39,JP,2022-09-10 20:04:03,broken clouds
516,Usak,38.5,29.4167,71.78,36,0,2.95,TR,2022-09-10 20:04:03,clear sky
517,Guanica,17.9716,-66.908,84.97,89,99,10.71,PR,2022-09-10 20:04:04,overcast clouds
518,Kavaratti,10.5669,72.642,79.88,83,100,22.12,IN,2022-09-10 20:04:04,overcast clouds
519,Chardara,41.2547,67.9692,67.44,39,11,22.91,KZ,2022-09-10 20:04:04,few clouds
520,Le Moule,16.3332,-61.3473,87.84,71,96,11.18,GP,2022-09-10 20:00:03,overcast clouds
521,Nioro,13.35,-15.75,78.49,88,100,5.21,GM,2022-09-10 20:04:05,moderate rain
522,Mut,36.6439,33.4389,78.89,20,0,5.08,TR,2022-09-10 20:04:05,clear sky
523,Jungapeo,19.45,-100.4833,76.8,76,100,7.49,MX,2022-09-10 20:04:05,overcast clouds
524,Cabedelo,-6.9811,-34.8339,77.67,74,43,11.39,BR,2022-09-10 20:04:06,scattered clouds
525,Praia Da Vitoria,38.7333,-27.0667,72.75,94,40,19.17,PT,2022-09-10 20:04:06,scattered clouds
526,Gizo,-8.103,156.8419,81.46,74,19,8.41,SB,2022-09-10 20:04:06,few clouds
527,Guipavas,48.4352,-4.3972,61.07,87,100,3.44,FR,2022-09-10 20:04:07,overcast clouds
528,Hearst,49.6835,-83.6665,67.68,55,90,1.28,CA,2022-09-10 20:04:07,overcast clouds
529,Sinzheim,48.7637,8.1666,63.27,90,75,9.22,DE,2022-09-10 20:04:07,broken clouds
530,Artesia,33.8658,-118.0831,82.92,76,98,3.0,US,2022-09-10 20:00:06,overcast clouds
531,Mahina,-17.5065,-149.489,80.37,65,75,11.5,PF,2022-09-10 20:04:08,broken clouds
532,Lubango,-14.9172,13.4925,61.83,60,5,2.64,AO,2022-09-10 20:04:08,clear sky
533,Sibu,2.3,111.8167,72.46,95,97,1.48,MY,2022-09-10 20:04:08,overcast clouds
534,Barinas,8.6226,-70.2075,85.64,60,99,2.98,VE,2022-09-10 20:04:09,overcast clouds
535,Tutoia,-2.7619,-42.2744,81.03,75,6,11.41,BR,2022-09-10 20:04:09,clear sky
536,Vancouver,49.2497,-123.1193,87.4,34,0,4.74,CA,2022-09-10 20:02:56,clear sky
537,Torquay,50.4638,-3.5143,64.85,82,100,1.99,GB,2022-09-10 20:04:09,overcast clouds
538,Takoradi,4.8845,-1.7554,74.75,87,66,8.77,GH,2022-09-10 20:04:10,broken clouds
539,Baykit,61.67,96.37,44.19,99,100,4.23,RU,2022-09-10 20:04:10,light rain
540,Bamiantong,44.9333,130.5333,57.13,87,100,3.76,CN,2022-09-10 20:04:10,overcast clouds
541,Diffa,13.3154,12.6113,79.2,69,97,5.23,NE,2022-09-10 20:04:11,overcast clouds
542,Ambam,2.3833,11.2833,67.17,99,73,2.82,CM,2022-09-10 20:04:11,broken clouds
543,Omboue,-1.5746,9.2618,75.47,88,93,8.86,GA,2022-09-10 20:04:11,overcast clouds
544,Palpa,-14.5336,-75.1856,81.1,30,0,9.93,PE,2022-09-10 20:04:12,clear sky
545,Hualmay,-11.0964,-77.6139,65.91,70,9,11.41,PE,2022-09-10 20:04:12,clear sky
546,Boende,-0.2167,20.8667,74.3,85,71,2.19,CD,2022-09-10 20:04:13,broken clouds
547,Ambilobe,-13.2,49.05,68.59,74,16,4.09,MG,2022-09-10 20:04:13,few clouds
548,Slantsy,59.1182,28.0914,45.19,75,93,4.09,RU,2022-09-10 20:04:13,overcast clouds
549,Christchurch,-43.5333,172.6333,50.92,89,40,6.91,NZ,2022-09-10 20:04:14,scattered clouds
550,Caravelas,-17.7125,-39.2481,73.81,66,3,8.72,BR,2022-09-10 20:04:14,clear sky
551,Patancheru,17.5314,78.265,74.26,92,100,11.36,IN,2022-09-10 20:04:15,heavy intensity rain
552,Mesagne,40.5588,17.8083,79.45,83,20,3.44,IT,2022-09-10 20:04:15,few clouds
553,Harper,4.375,-7.7169,75.76,85,25,9.24,LR,2022-09-10 20:04:16,scattered clouds
554,Ovar,40.8586,-8.6251,70.2,79,0,3.74,PT,2022-09-10 20:04:17,clear sky
555,Thinadhoo,0.5333,72.9333,81.61,73,95,13.2,MV,2022-09-10 20:04:17,overcast clouds
556,Crixas,-14.5489,-49.9692,98.65,12,6,7.43,BR,2022-09-10 20:04:18,clear sky
557,Caucaia,-3.7361,-38.6531,79.03,76,0,11.14,BR,2022-09-10 20:00:39,clear sky
558,Usinsk,65.9939,57.5281,41.61,88,99,7.61,RU,2022-09-10 20:04:20,overcast clouds
559,Mehamn,71.0357,27.8492,46.35,87,75,12.66,NO,2022-09-10 20:04:20,light intensity drizzle
560,Yumen,40.2833,97.2,66.31,14,0,1.5,CN,2022-09-10 20:04:20,clear sky
561,Bilma,18.6853,12.9164,93.15,14,9,4.61,NE,2022-09-10 20:04:21,clear sky
562,Bonfim,3.0833,-59.95,90.28,51,100,1.68,BR,2022-09-10 20:04:21,overcast clouds
563,College,64.8569,-147.8028,50.32,90,100,14.97,US,2022-09-10 20:04:21,overcast clouds
564,Jaciara,-15.9653,-54.9683,99.55,14,1,5.32,BR,2022-09-10 20:04:22,clear sky
565,Wanparti,16.3667,78.0667,73.98,93,100,11.54,IN,2022-09-10 20:04:22,overcast clouds
566,Kikwit,-5.041,18.8162,76.39,72,33,2.15,CD,2022-09-10 20:04:22,light rain
567,Denizli,37.8402,29.0698,77.95,32,0,2.55,TR,2022-09-10 20:04:23,clear sky
568,Qitaihe,45.8,130.85,56.39,88,100,3.15,CN,2022-09-10 20:04:23,overcast clouds
569,Gurjaani,41.7429,45.8011,63.45,76,100,3.0,GE,2022-09-10 20:04:24,overcast clouds
570,Umm Lajj,25.0213,37.2685,87.76,58,10,7.18,SA,2022-09-10 20:03:05,clear sky
571,Katobu,-4.9408,122.5276,72.75,93,99,2.95,ID,2022-09-10 20:04:24,overcast clouds
572,Great Yarmouth,52.6083,1.7305,62.02,83,0,8.43,GB,2022-09-10 20:04:25,clear sky
573,Gat,31.61,34.7642,79.48,100,0,3.69,IL,2022-09-10 20:04:25,clear sky
574,Mikhaylovka,50.06,43.2379,46.71,55,1,7.56,RU,2022-09-10 20:04:25,clear sky
575,Shimoda,34.6667,138.95,70.11,74,6,16.22,JP,2022-09-10 20:04:26,clear sky
576,Angoche,-16.2325,39.9086,73.45,79,0,6.51,MZ,2022-09-10 20:04:26,clear sky
577,Vestmannaeyjar,63.4427,-20.2734,53.53,91,100,6.04,IS,2022-09-10 20:04:26,light rain
578,Amahai,-3.3333,128.9167,76.42,86,100,3.42,ID,2022-09-10 20:04:27,overcast clouds
579,Champasak,14.75,106.0,71.96,99,76,1.19,LA,2022-09-10 20:04:27,light rain
580,Oussouye,12.485,-16.5469,79.97,84,79,5.95,SN,2022-09-10 20:04:27,broken clouds
581,Cap-Aux-Meules,47.3821,-61.8597,64.85,70,0,18.34,CA,2022-09-10 20:02:02,clear sky
582,Okmulgee,35.6234,-95.9605,91.83,35,75,3.44,US,2022-09-10 20:04:28,broken clouds
583,Diego De Almagro,-26.3667,-70.05,70.63,21,66,10.58,CL,2022-09-10 20:04:28,broken clouds
584,Atyrau,47.1167,51.8833,46.42,71,0,8.95,KZ,2022-09-10 20:04:28,clear sky
585,Flagstaff,35.1981,-111.6513,76.66,73,100,3.44,US,2022-09-10 20:04:29,light rain
586,Coahuayana,18.7333,-103.6833,88.39,66,100,7.36,MX,2022-09-10 20:04:29,overcast clouds
587,Hirara,24.8,125.2833,82.02,85,100,18.68,JP,2022-09-10 20:04:29,overcast clouds
588,Beauceville,46.2179,-70.7787,77.5,49,5,7.74,CA,2022-09-10 20:04:30,clear sky
589,Mayumba,-3.432,10.6554,74.28,88,100,8.25,GA,2022-09-10 20:04:30,overcast clouds
590,Vestmanna,62.1564,-7.1664,49.12,93,75,13.8,FO,2022-09-10 20:04:31,broken clouds
591,Sisimiut,66.9395,-53.6735,48.81,70,100,18.14,GL,2022-09-10 20:04:31,light rain
592,Ambulu,-8.345,113.6058,73.67,93,100,2.37,ID,2022-09-10 20:04:31,overcast clouds
593,Scottsbluff,41.8666,-103.6672,61.03,60,75,9.22,US,2022-09-10 20:02:02,broken clouds
594,Kungurtug,50.5994,97.5228,41.92,93,42,2.06,RU,2022-09-10 20:04:32,scattered clouds
595,Berdigestyakh,62.0989,126.6992,34.27,99,48,5.44,RU,2022-09-10 20:04:32,scattered clouds
